<?xml version="1.0" encoding="utf-8"?>
<ArrayOfVolunteer xmlns:xsi="http://www.w3.org/2001/XMLSchema-instance" xmlns:xsd="http://www.w3.org/2001/XMLSchema">
  <Volunteer>
    <Id>319254109</Id>
    <FullName>Dani Levy</FullName>
    <PhoneNumber>0506429089</PhoneNumber>
    <Email>0506429089@gmail.com</Email>
    <Active>false</Active>
    <Role>volunteer</Role>
    <DistanceType>aerialDistance</DistanceType>
    <Password>Dani3192)</Password>
    <FullAddress>Rothschild Boulevard 45</FullAddress>
    <Latitude>32.086</Latitude>
    <Longitude>34.7825</Longitude>
    <MaxDistance>36</MaxDistance>
  </Volunteer>
  <Volunteer>
    <Id>222957124</Id>
    <FullName>Eli Amar</FullName>
    <PhoneNumber>0524200613</PhoneNumber>
    <Email>0524200613@gmail.com</Email>
    <Active>false</Active>
    <Role>volunteer</Role>
    <DistanceType>aerialDistance</DistanceType>
    <Password>EliA2229@</Password>
    <FullAddress>Ibn Gabirol Street 99</FullAddress>
    <Latitude>32.0845</Latitude>
    <Longitude>34.7801</Longitude>
    <MaxDistance>50</MaxDistance>
  </Volunteer>
  <Volunteer>
    <Id>282731797</Id>
    <FullName>Yair Cohen</FullName>
    <PhoneNumber>0583718837</PhoneNumber>
    <Email>0583718837@gmail.com</Email>
    <Active>false</Active>
    <Role>volunteer</Role>
    <DistanceType>aerialDistance</DistanceType>
    <Password>Yair2827$</Password>
    <FullAddress>King George Street 76</FullAddress>
    <Latitude>32.0872</Latitude>
    <Longitude>34.7799</Longitude>
    <MaxDistance>26</MaxDistance>
  </Volunteer>
  <Volunteer>
    <Id>250831183</Id>
    <FullName>Shira Israelof</FullName>
    <PhoneNumber>0585587839</PhoneNumber>
    <Email>0585587839@gmail.com</Email>
    <Active>false</Active>
    <Role>volunteer</Role>
    <DistanceType>aerialDistance</DistanceType>
    <Password>Shir2508#</Password>
    <FullAddress>Ben Yehuda Street 67</FullAddress>
    <Latitude>32.0883</Latitude>
    <Longitude>34.7827</Longitude>
    <MaxDistance>59</MaxDistance>
  </Volunteer>
  <Volunteer>
    <Id>215806589</Id>
    <FullName>d</FullName>
    <PhoneNumber>0555554455</PhoneNumber>
    <Email>d@fff.ff</Email>
    <Active>false</Active>
    <Role>manager</Role>
    <DistanceType>aerialDistance</DistanceType>
    <Password>A6xnQhbz4Vx2HuGl4lXwZ5U2I8iziLRFnhP5eNfIRvQ=</Password>
    <FullAddress>erdf 3</FullAddress>
    <Latitude>49.9986253</Latitude>
    <Longitude>6.5709543</Longitude>
    <MaxDistance xsi:nil="true" />
  </Volunteer>
  <Volunteer>
    <Id>215639212</Id>
    <FullName>Rivka</FullName>
    <PhoneNumber>055550000</PhoneNumber>
    <Email>sddd@s.com</Email>
    <Active>false</Active>
    <Role>volunteer</Role>
    <DistanceType>aerialDistance</DistanceType>
    <Password>FSvvlsL/ZjRy2Ir60263Cvh4dGbSMDtFQIipHJAPwv8=</Password>
    <FullAddress>sss 3</FullAddress>
    <Latitude>58.7850415</Latitude>
    <Longitude>9.3217209</Longitude>
    <MaxDistance xsi:nil="true" />
  </Volunteer>
  <Volunteer>
    <Id>214364960</Id>
    <FullName>fff</FullName>
    <PhoneNumber>055555555</PhoneNumber>
    <Email>s@dd.com</Email>
    <Active>false</Active>
    <Role>volunteer</Role>
    <DistanceType>aerialDistance</DistanceType>
    <Password>A6xnQhbz4Vx2HuGl4lXwZ5U2I8iziLRFnhP5eNfIRvQ=</Password>
    <FullAddress>dd 3</FullAddress>
    <Latitude>34.0810028</Latitude>
    <Longitude>49.6842229</Longitude>
    <MaxDistance xsi:nil="true" />
  </Volunteer>
  <Volunteer>
    <Id>214915027</Id>
    <FullName>d</FullName>
    <PhoneNumber>0555554455</PhoneNumber>
    <Email>dd@fjff.ff</Email>
    <Active>false</Active>
    <Role>volunteer</Role>
    <DistanceType>aerialDistance</DistanceType>
    <Password>lMJz/CXvucU8+QTqaiR+Am8Bxchu5VSbsIHttrfVN+0=</Password>
    <FullAddress>kkkkkkk 3</FullAddress>
    <Latitude>48.540646</Latitude>
    <Longitude>9.282526</Longitude>
    <MaxDistance xsi:nil="true" />
  </Volunteer>
</ArrayOfVolunteer>